{
"type": "FeatureCollection",
"name": "poi_ex",
"crs": { "type": "name", "properties": { "name": "urn:ogc:def:crs:OGC:1.3:CRS84" } },
"features": [
{ "type": "Feature", "properties": { "category": "coffee", "city": "Al Khobar", "latitude": 26.3005351, "longitude": 50.1788326, "name": "منعم أفندي", "rating": 4.9, "close_open": "close", "close_open_year_test": 2021 }, "geometry": { "type": "Point", "coordinates": [ 50.1788326, 26.3005351 ] } },
{ "type": "Feature", "properties": { "category": "coffee", "city": "Al Khobar", "latitude": 26.2997176, "longitude": 50.179926, "name": "فخار كرك", "rating": 4.0, "close_open": "close", "close_open_year_test": 2017 }, "geometry": { "type": "Point", "coordinates": [ 50.179926, 26.2997176 ] } },
{ "type": "Feature", "properties": { "category": "coffee", "city": "Al Khobar", "latitude": 26.3009805, "longitude": 50.1804204, "name": "Container Cafe", "rating": 4.1, "close_open": "close", "close_open_year_test": 2019 }, "geometry": { "type": "Point", "coordinates": [ 50.18042040000001, 26.3009805 ] } },
{ "type": "Feature", "properties": { "category": "coffee", "city": "Al Khobar", "latitude": 26.2997103, "longitude": 50.1798051, "name": "Perfecto Coffee | بيرفيكتو كوفي", "rating": 4.4, "close_open": "close", "close_open_year_test": 2018 }, "geometry": { "type": "Point", "coordinates": [ 50.1798051, 26.2997103 ] } },
{ "type": "Feature", "properties": { "category": "coffee", "city": "Al Khobar", "latitude": 26.2988582, "longitude": 50.1791484, "name": "مقهى ومحمصة شرق", "rating": null, "close_open": "close", "close_open_year_test": 2018 }, "geometry": { "type": "Point", "coordinates": [ 50.1791484, 26.2988582 ] } },
{ "type": "Feature", "properties": { "category": "coffee", "city": "Al Khobar", "latitude": 26.3012315, "longitude": 50.1797803, "name": "Ioplo", "rating": 5.0, "close_open": "close", "close_open_year_test": 2017 }, "geometry": { "type": "Point", "coordinates": [ 50.1797803, 26.3012315 ] } },
{ "type": "Feature", "properties": { "category": "coffee", "city": "Al Khobar", "latitude": 26.2996848, "longitude": 50.1792617, "name": "Positive بوزتيف", "rating": 4.3, "close_open": "close", "close_open_year_test": 2017 }, "geometry": { "type": "Point", "coordinates": [ 50.1792617, 26.2996848 ] } },
{ "type": "Feature", "properties": { "category": "resturant", "city": "Al Khobar", "latitude": 26.3013392, "longitude": 50.1796848, "name": "Blue Zone بلوزون", "rating": 3.2, "close_open": "close", "close_open_year_test": 2019 }, "geometry": { "type": "Point", "coordinates": [ 50.1796848, 26.3013392 ] } },
{ "type": "Feature", "properties": { "category": "business", "city": "Al Khobar", "latitude": 26.3056646, "longitude": 50.1749308, "name": "Olaya Business Center", "rating": 4.5, "close_open": "open", "close_open_year_test": 2018 }, "geometry": { "type": "Point", "coordinates": [ 50.1749308, 26.3056646 ] } },
{ "type": "Feature", "properties": { "category": "business", "city": "Al Khobar", "latitude": 26.3021534, "longitude": 50.1780742, "name": "EEIC Khobar Office - 2nd Floor", "rating": 4.7, "close_open": "open", "close_open_year_test": 2017 }, "geometry": { "type": "Point", "coordinates": [ 50.1780742, 26.3021534 ] } },
{ "type": "Feature", "properties": { "category": "business", "city": "Al Khobar", "latitude": 26.3022309, "longitude": 50.1781681, "name": "Salam Tower", "rating": 4.0, "close_open": "open", "close_open_year_test": 2020 }, "geometry": { "type": "Point", "coordinates": [ 50.1781681, 26.3022309 ] } },
{ "type": "Feature", "properties": { "category": "business", "city": "Al Khobar", "latitude": 26.3022387, "longitude": 50.1770215, "name": "Life tower", "rating": 5.0, "close_open": "open", "close_open_year_test": 2020 }, "geometry": { "type": "Point", "coordinates": [ 50.1770215, 26.3022387 ] } },
{ "type": "Feature", "properties": { "category": "business", "city": "Al Khobar", "latitude": 26.300611, "longitude": 50.171838, "name": "Alajmi Business Center برج العجمي للأعمال", "rating": 4.5, "close_open": "open", "close_open_year_test": 2019 }, "geometry": { "type": "Point", "coordinates": [ 50.171838, 26.300611 ] } },
{ "type": "Feature", "properties": { "category": "business", "city": "Al Khobar", "latitude": 26.3014375, "longitude": 50.1811875, "name": "Al Olaya Suites", "rating": 3.8, "close_open": "open", "close_open_year_test": 2021 }, "geometry": { "type": "Point", "coordinates": [ 50.1811875, 26.3014375 ] } },
{ "type": "Feature", "properties": { "category": "coffee", "city": "Al Khobar", "latitude": 26.3025911, "longitude": 50.1731814, "name": "Circle K Procare Hospital AlKhobar", "rating": 4.0, "close_open": "open", "close_open_year_test": 2017 }, "geometry": { "type": "Point", "coordinates": [ 50.1731814, 26.3025911 ] } },
{ "type": "Feature", "properties": { "category": "coffee", "city": "Al Khobar", "latitude": 26.3025262, "longitude": 50.1766162, "name": "Matter", "rating": 4.3, "close_open": "open", "close_open_year_test": 2018 }, "geometry": { "type": "Point", "coordinates": [ 50.1766162, 26.3025262 ] } },
{ "type": "Feature", "properties": { "category": "coffee", "city": "Al Khobar", "latitude": 26.3037672, "longitude": 50.1789438, "name": "شاي زردة", "rating": 3.5, "close_open": "open", "close_open_year_test": 2018 }, "geometry": { "type": "Point", "coordinates": [ 50.1789438, 26.3037672 ] } },
{ "type": "Feature", "properties": { "category": "resturant", "city": "Al Khobar", "latitude": 26.3038546, "longitude": 50.1788912, "name": "Chico | تشيكو", "rating": 4.0, "close_open": "open", "close_open_year_test": 2017 }, "geometry": { "type": "Point", "coordinates": [ 50.1788912, 26.3038546 ] } },
{ "type": "Feature", "properties": { "category": "hotel", "city": "Al Khobar", "latitude": 26.2952963, "longitude": 50.176843, "name": "Manazel Shada Furnished Units Al Khobar", "rating": 3.4, "close_open": "open", "close_open_year_test": 2020 }, "geometry": { "type": "Point", "coordinates": [ 50.176843, 26.2952963 ] } },
{ "type": "Feature", "properties": { "category": "hotel", "city": "Al Khobar", "latitude": 26.2961253, "longitude": 50.1730584, "name": "ماسة الماسم", "rating": 3.7, "close_open": "open", "close_open_year_test": 2021 }, "geometry": { "type": "Point", "coordinates": [ 50.1730584, 26.2961253 ] } },
{ "type": "Feature", "properties": { "category": "resturant", "city": "Al Khobar", "latitude": 26.290111, "longitude": 50.181123, "name": "Burger King - Rashid Mall", "rating": 3.2, "close_open": "open", "close_open_year_test": 2018 }, "geometry": { "type": "Point", "coordinates": [ 50.181123, 26.290111 ] } },
{ "type": "Feature", "properties": { "category": "business", "city": "Al Khobar", "latitude": 26.2944488, "longitude": 50.1853294, "name": "Intertek Saudi Arabia Ltd.", "rating": 4.0, "close_open": "open", "close_open_year_test": 2021 }, "geometry": { "type": "Point", "coordinates": [ 50.1853294, 26.2944488 ] } },
{ "type": "Feature", "properties": { "category": "business", "city": "Al Khobar", "latitude": 26.3005733, "longitude": 50.1720008, "name": "Global Technical Services Co. Ltd.", "rating": 4.4, "close_open": "open", "close_open_year_test": 2018 }, "geometry": { "type": "Point", "coordinates": [ 50.1720008, 26.3005733 ] } },
{ "type": "Feature", "properties": { "category": "business", "city": "Al Khobar", "latitude": 26.3020834, "longitude": 50.1769429, "name": "IntelCodes", "rating": 5.0, "close_open": "open", "close_open_year_test": 2018 }, "geometry": { "type": "Point", "coordinates": [ 50.1769429, 26.3020834 ] } },
{ "type": "Feature", "properties": { "category": "business", "city": "Al Khobar", "latitude": 26.3060492, "longitude": 50.1800218, "name": "Nestle Khobar Saudi Arabia L.L.C.", "rating": 3.4, "close_open": "open", "close_open_year_test": 2018 }, "geometry": { "type": "Point", "coordinates": [ 50.1800218, 26.3060492 ] } },
{ "type": "Feature", "properties": { "category": "business", "city": "Al Khobar", "latitude": 26.3024623, "longitude": 50.1779649, "name": "Burj Slam", "rating": 5.0, "close_open": "open", "close_open_year_test": 2019 }, "geometry": { "type": "Point", "coordinates": [ 50.1779649, 26.3024623 ] } },
{ "type": "Feature", "properties": { "category": "coffee", "city": "Al Khobar", "latitude": 26.302037, "longitude": 50.1776791, "name": "Starbucks", "rating": 4.4, "close_open": "open", "close_open_year_test": 2017 }, "geometry": { "type": "Point", "coordinates": [ 50.1776791, 26.302037 ] } },
{ "type": "Feature", "properties": { "category": "coffee", "city": "Al Khobar", "latitude": 26.3013587, "longitude": 50.1787971, "name": "G O L D E N B U TT E R F L Y", "rating": 2.0, "close_open": "close", "close_open_year_test": 2021 }, "geometry": { "type": "Point", "coordinates": [ 50.1787971, 26.3013587 ] } },
{ "type": "Feature", "properties": { "category": "coffee", "city": "Al Khobar", "latitude": 26.3011368, "longitude": 50.1804792, "name": "Army Cafe - آرمي كافيه", "rating": 4.7, "close_open": "close", "close_open_year_test": 2020 }, "geometry": { "type": "Point", "coordinates": [ 50.1804792, 26.3011368 ] } },
{ "type": "Feature", "properties": { "category": "hotel", "city": "Al Khobar", "latitude": 26.2998876, "longitude": 50.1737086, "name": "مبيت الخبر للأجنحة الفندقية", "rating": 4.4, "close_open": "open", "close_open_year_test": 2021 }, "geometry": { "type": "Point", "coordinates": [ 50.1737086, 26.2998876 ] } },
{ "type": "Feature", "properties": { "category": "hotel", "city": "Al Khobar", "latitude": 26.2952881, "longitude": 50.1768429, "name": "شدا الخبر أجنحة فندقية", "rating": 3.6, "close_open": "open", "close_open_year_test": 2018 }, "geometry": { "type": "Point", "coordinates": [ 50.1768429, 26.2952881 ] } },
{ "type": "Feature", "properties": { "category": "hotel", "city": "Al Khobar", "latitude": 26.2995717, "longitude": 50.1712031, "name": "Mouf Hotel Apartments", "rating": 3.6, "close_open": "open", "close_open_year_test": 2021 }, "geometry": { "type": "Point", "coordinates": [ 50.1712031, 26.2995717 ] } },
{ "type": "Feature", "properties": { "category": "hotel", "city": "Al Khobar", "latitude": 26.2949437, "longitude": 50.1764602, "name": "Orchid", "rating": 3.4, "close_open": "open", "close_open_year_test": 2020 }, "geometry": { "type": "Point", "coordinates": [ 50.1764602, 26.2949437 ] } },
{ "type": "Feature", "properties": { "category": "coffee", "city": "Al Khobar", "latitude": 26.3023144, "longitude": 50.1778566, "name": "hug coffee", "rating": 5.0, "close_open": "open", "close_open_year_test": 2021 }, "geometry": { "type": "Point", "coordinates": [ 50.1778566, 26.3023144 ] } },
{ "type": "Feature", "properties": { "category": "coffee", "city": "Al Khobar", "latitude": 26.3032886, "longitude": 50.1779022, "name": "وايت اند بلو", "rating": 4.3, "close_open": "open", "close_open_year_test": 2019 }, "geometry": { "type": "Point", "coordinates": [ 50.1779022, 26.3032886 ] } },
{ "type": "Feature", "properties": { "category": "business", "city": "Al Khobar", "latitude": 26.2952648, "longitude": 50.1854104, "name": "Olaya center - Aqrabyia( Intertek)", "rating": 3.9, "close_open": "open", "close_open_year_test": 2021 }, "geometry": { "type": "Point", "coordinates": [ 50.1854104, 26.2952648 ] } },
{ "type": "Feature", "properties": { "category": "business", "city": "Al Khobar", "latitude": 26.3056565, "longitude": 50.1749768, "name": "Saudi Hofincons Company Limited", "rating": 4.4, "close_open": "open", "close_open_year_test": 2020 }, "geometry": { "type": "Point", "coordinates": [ 50.1749768, 26.3056565 ] } },
{ "type": "Feature", "properties": { "category": "hotel", "city": "Al Khobar", "latitude": 26.2988497, "longitude": 50.1751257, "name": "اجنحة لاريسا", "rating": 3.9, "close_open": "open", "close_open_year_test": 2020 }, "geometry": { "type": "Point", "coordinates": [ 50.1751257, 26.2988497 ] } },
{ "type": "Feature", "properties": { "category": "hotel", "city": "Al Khobar", "latitude": 26.2968062, "longitude": 50.1740128, "name": "OYO 290 Nasmat Al Khobar", "rating": 3.6, "close_open": "open", "close_open_year_test": 2019 }, "geometry": { "type": "Point", "coordinates": [ 50.1740128, 26.2968062 ] } },
{ "type": "Feature", "properties": { "category": "business", "city": "As Sharqiyah", "latitude": 26.3003117, "longitude": 50.1832328, "name": "أنظمة الحاسبات السعودية المحدودة Saudisoft Co. Ltd", "rating": 4.1, "close_open": "open", "close_open_year_test": 2020 }, "geometry": { "type": "Point", "coordinates": [ 50.1832328, 26.3003117 ] } },
{ "type": "Feature", "properties": { "category": "coffee", "city": "Al Khobar", "latitude": 26.2997841, "longitude": 50.1802384, "name": "Abu Abood Tea", "rating": 4.8, "close_open": "close", "close_open_year_test": 2017 }, "geometry": { "type": "Point", "coordinates": [ 50.1802384, 26.2997841 ] } },
{ "type": "Feature", "properties": { "category": "coffee", "city": "Al Khobar", "latitude": 26.2993779, "longitude": 50.1742655, "name": "Do Donuts", "rating": 3.9, "close_open": "open", "close_open_year_test": 2019 }, "geometry": { "type": "Point", "coordinates": [ 50.1742655, 26.2993779 ] } },
{ "type": "Feature", "properties": { "category": "coffee", "city": "Al Khobar", "latitude": 26.306161, "longitude": 50.183436, "name": "Starbucks", "rating": 4.4, "close_open": "open", "close_open_year_test": 2020 }, "geometry": { "type": "Point", "coordinates": [ 50.183436, 26.306161 ] } },
{ "type": "Feature", "properties": { "category": "coffee", "city": "Al Khobar", "latitude": 26.3004227, "longitude": 50.1737851, "name": "كرسبي كريم العليت", "rating": 5.0, "close_open": "open", "close_open_year_test": 2019 }, "geometry": { "type": "Point", "coordinates": [ 50.1737851, 26.3004227 ] } },
{ "type": "Feature", "properties": { "category": "coffee", "city": "Al Khobar", "latitude": 26.290892, "longitude": 50.1805189, "name": "My Little Cafe", "rating": 5.0, "close_open": "open", "close_open_year_test": 2017 }, "geometry": { "type": "Point", "coordinates": [ 50.1805189, 26.290892 ] } },
{ "type": "Feature", "properties": { "category": "coffee", "city": "Al Khobar", "latitude": 26.2914671, "longitude": 50.1801138, "name": "Kurtos Cafe", "rating": 4.1, "close_open": "open", "close_open_year_test": 2018 }, "geometry": { "type": "Point", "coordinates": [ 50.1801138, 26.2914671 ] } },
{ "type": "Feature", "properties": { "category": "business", "city": "Al Khobar", "latitude": 26.3056257, "longitude": 50.1779549, "name": "Ramada Encore by Wyndham Al Khobar Olaya", "rating": 3.7, "close_open": "open", "close_open_year_test": 2019 }, "geometry": { "type": "Point", "coordinates": [ 50.1779549, 26.3056257 ] } },
{ "type": "Feature", "properties": { "category": "business", "city": "Al Khobar", "latitude": 26.2952827, "longitude": 50.176818, "name": "Common Interest Company for Operations & Maintenance", "rating": 5.0, "close_open": "open", "close_open_year_test": 2017 }, "geometry": { "type": "Point", "coordinates": [ 50.176818, 26.2952827 ] } },
{ "type": "Feature", "properties": { "category": "business", "city": "Al Khobar", "latitude": 26.3020767, "longitude": 50.1769963, "name": "Smart Advisory for Financial Consulting", "rating": 5.0, "close_open": "open", "close_open_year_test": 2018 }, "geometry": { "type": "Point", "coordinates": [ 50.1769963, 26.3020767 ] } },
{ "type": "Feature", "properties": { "category": "business", "city": "Al Khobar", "latitude": 26.2908109, "longitude": 50.1774748, "name": "Regus - Al Khobar, Al Rashed Towers", "rating": 4.1, "close_open": "open", "close_open_year_test": 2019 }, "geometry": { "type": "Point", "coordinates": [ 50.1774748, 26.2908109 ] } },
{ "type": "Feature", "properties": { "category": "coffee", "city": "Al Khobar", "latitude": 26.2903957, "longitude": 50.1873237, "name": "Starbucks", "rating": 4.3, "close_open": "open", "close_open_year_test": 2021 }, "geometry": { "type": "Point", "coordinates": [ 50.1873237, 26.2903957 ] } },
{ "type": "Feature", "properties": { "category": "coffee", "city": "Al Khobar", "latitude": 26.3056266, "longitude": 50.1779586, "name": "Wacafe coffe shop", "rating": 4.0, "close_open": "open", "close_open_year_test": 2020 }, "geometry": { "type": "Point", "coordinates": [ 50.1779586, 26.3056266 ] } },
{ "type": "Feature", "properties": { "category": "business", "city": "Al Khobar", "latitude": 26.3027336, "longitude": 50.1771437, "name": "curcum f&b consulting co", "rating": 5.0, "close_open": "open", "close_open_year_test": 2021 }, "geometry": { "type": "Point", "coordinates": [ 50.1771437, 26.3027336 ] } },
{ "type": "Feature", "properties": { "category": "business", "city": "Al Khobar", "latitude": 26.2964164, "longitude": 50.1690818, "name": "ZATE Building", "rating": null, "close_open": "open", "close_open_year_test": 2018 }, "geometry": { "type": "Point", "coordinates": [ 50.1690818, 26.2964164 ] } },
{ "type": "Feature", "properties": { "category": "business", "city": "Al Khobar", "latitude": 26.3037129, "longitude": 50.1754658, "name": "Hotel Suites Towlan", "rating": 3.4, "close_open": "open", "close_open_year_test": 2021 }, "geometry": { "type": "Point", "coordinates": [ 50.1754658, 26.3037129 ] } },
{ "type": "Feature", "properties": { "category": "business", "city": "Al Khobar", "latitude": 26.298194, "longitude": 50.1809705, "name": "Dar Albaraka Business Center", "rating": 5.0, "close_open": "open", "close_open_year_test": 2019 }, "geometry": { "type": "Point", "coordinates": [ 50.1809705, 26.298194 ] } },
{ "type": "Feature", "properties": { "category": "business", "city": "Al Khobar", "latitude": 26.2961106, "longitude": 50.1752499, "name": "عوالي للشقق المخدومه", "rating": 4.9, "close_open": "open", "close_open_year_test": 2019 }, "geometry": { "type": "Point", "coordinates": [ 50.1752499, 26.2961106 ] } },
{ "type": "Feature", "properties": { "category": "coffee", "city": "Al Khobar", "latitude": 26.2910241, "longitude": 50.1810357, "name": "Kunefeci Bakery", "rating": null, "close_open": "open", "close_open_year_test": 2017 }, "geometry": { "type": "Point", "coordinates": [ 50.1810357, 26.2910241 ] } },
{ "type": "Feature", "properties": { "category": "coffee", "city": "Al Khobar", "latitude": 26.3001235, "longitude": 50.1797543, "name": "الكريب السعودي 2", "rating": 5.0, "close_open": "close", "close_open_year_test": 2018 }, "geometry": { "type": "Point", "coordinates": [ 50.1797543, 26.3001235 ] } },
{ "type": "Feature", "properties": { "category": "coffee", "city": "Al Khobar", "latitude": 26.2995741, "longitude": 50.1739508, "name": "A Plus", "rating": 4.3, "close_open": "open", "close_open_year_test": 2019 }, "geometry": { "type": "Point", "coordinates": [ 50.1739508, 26.2995741 ] } },
{ "type": "Feature", "properties": { "category": "business", "city": "Al Khobar", "latitude": 26.2984989, "longitude": 50.1770272, "name": "Beata Garden Apart Hotel", "rating": 4.5, "close_open": "open", "close_open_year_test": 2021 }, "geometry": { "type": "Point", "coordinates": [ 50.1770272, 26.2984989 ] } },
{ "type": "Feature", "properties": { "category": "business", "city": "Al Khobar", "latitude": 26.3050071, "longitude": 50.1744581, "name": "Zara Continental Hotel", "rating": 3.8, "close_open": "open", "close_open_year_test": 2019 }, "geometry": { "type": "Point", "coordinates": [ 50.1744581, 26.3050071 ] } },
{ "type": "Feature", "properties": { "category": "business", "city": "Al Khobar", "latitude": 26.2903118, "longitude": 50.1772925, "name": "Grand Hyatt Al Khobar Hotel And Residences", "rating": 4.5, "close_open": "open", "close_open_year_test": 2019 }, "geometry": { "type": "Point", "coordinates": [ 50.1772925, 26.2903118 ] } },
{ "type": "Feature", "properties": { "category": "coffee", "city": "Al Khobar", "latitude": 26.3026923, "longitude": 50.1805251, "name": "BLOOM Olaya pop-up", "rating": 4.7, "close_open": "open", "close_open_year_test": 2018 }, "geometry": { "type": "Point", "coordinates": [ 50.1805251, 26.3026923 ] } },
{ "type": "Feature", "properties": { "category": "hotel", "city": "Al Khobar", "latitude": 26.2988233, "longitude": 50.1766774, "name": "Tulay Park Hotel Apartments", "rating": 3.3, "close_open": "open", "close_open_year_test": 2020 }, "geometry": { "type": "Point", "coordinates": [ 50.1766774, 26.2988233 ] } },
{ "type": "Feature", "properties": { "category": "coffee", "city": "Al Khobar", "latitude": 26.3031204, "longitude": 50.1780306, "name": "HAZEL COFFEE | هزل كوفي", "rating": 4.9, "close_open": "open", "close_open_year_test": 2020 }, "geometry": { "type": "Point", "coordinates": [ 50.1780306, 26.3031204 ] } },
{ "type": "Feature", "properties": { "category": "coffee", "city": "Al Khobar", "latitude": 26.2980066, "longitude": 50.1786256, "name": "Bhavan | Riyadh", "rating": 3.0, "close_open": "open", "close_open_year_test": 2017 }, "geometry": { "type": "Point", "coordinates": [ 50.1786256, 26.2980066 ] } },
{ "type": "Feature", "properties": { "category": "coffee", "city": "Al Khobar", "latitude": 26.2911739, "longitude": 50.1808588, "name": "Mr. Fries", "rating": 3.3, "close_open": "open", "close_open_year_test": 2018 }, "geometry": { "type": "Point", "coordinates": [ 50.1808588, 26.2911739 ] } },
{ "type": "Feature", "properties": { "category": "coffee", "city": "Al Khobar", "latitude": 26.3038446, "longitude": 50.1790754, "name": "POSITIVE", "rating": 5.0, "close_open": "open", "close_open_year_test": 2020 }, "geometry": { "type": "Point", "coordinates": [ 50.1790754, 26.3038446 ] } },
{ "type": "Feature", "properties": { "category": "coffee", "city": "Al Khobar", "latitude": 26.2998344, "longitude": 50.1803689, "name": "Osaka pan اوساكا بان", "rating": 4.0, "close_open": "close", "close_open_year_test": 2021 }, "geometry": { "type": "Point", "coordinates": [ 50.1803689, 26.2998344 ] } },
{ "type": "Feature", "properties": { "category": "coffee", "city": "Al Khobar", "latitude": 26.3020116, "longitude": 50.177419, "name": "Starbucks", "rating": 4.1, "close_open": "open", "close_open_year_test": 2018 }, "geometry": { "type": "Point", "coordinates": [ 50.177419, 26.3020116 ] } },
{ "type": "Feature", "properties": { "category": "coffee", "city": "Al Khobar", "latitude": 26.3043125, "longitude": 50.1748125, "name": "كافيه السعودية", "rating": 5.0, "close_open": "open", "close_open_year_test": 2020 }, "geometry": { "type": "Point", "coordinates": [ 50.1748125, 26.3043125 ] } },
{ "type": "Feature", "properties": { "category": "coffee", "city": "Al Khobar", "latitude": 26.3046624, "longitude": 50.1742876, "name": "wxyz lounge", "rating": 4.1, "close_open": "open", "close_open_year_test": 2017 }, "geometry": { "type": "Point", "coordinates": [ 50.1742876, 26.3046624 ] } },
{ "type": "Feature", "properties": { "category": "coffee", "city": "Al Khobar", "latitude": 26.3059636, "longitude": 50.183034, "name": "Sword", "rating": 4.2, "close_open": "open", "close_open_year_test": 2017 }, "geometry": { "type": "Point", "coordinates": [ 50.183034, 26.3059636 ] } },
{ "type": "Feature", "properties": { "category": "hotel", "city": "Al Khobar", "latitude": 26.2969581, "longitude": 50.177138, "name": "Dream Palace 2 Hotel Appartments", "rating": 3.6, "close_open": "open", "close_open_year_test": 2020 }, "geometry": { "type": "Point", "coordinates": [ 50.177138, 26.2969581 ] } },
{ "type": "Feature", "properties": { "category": "coffee", "city": "Al Khobar", "latitude": 26.2981314, "longitude": 50.1809238, "name": "كارديو كافيه", "rating": 4.4, "close_open": "open", "close_open_year_test": 2021 }, "geometry": { "type": "Point", "coordinates": [ 50.1809238, 26.2981314 ] } },
{ "type": "Feature", "properties": { "category": "hotel", "city": "Al Khobar", "latitude": 26.3044994, "longitude": 50.1785138, "name": "Lina park 5", "rating": 2.9, "close_open": "open", "close_open_year_test": 2017 }, "geometry": { "type": "Point", "coordinates": [ 50.1785138, 26.3044994 ] } },
{ "type": "Feature", "properties": { "category": "coffee", "city": "Al Khobar", "latitude": 26.2974696, "longitude": 50.1785601, "name": "Effect Coffee", "rating": 4.9, "close_open": "open", "close_open_year_test": 2017 }, "geometry": { "type": "Point", "coordinates": [ 50.1785601, 26.2974696 ] } },
{ "type": "Feature", "properties": { "category": "hotel", "city": "Al Khobar", "latitude": 26.3018807, "longitude": 50.1779602, "name": "Villa Misk Alkhobar", "rating": 4.8, "close_open": "open", "close_open_year_test": 2020 }, "geometry": { "type": "Point", "coordinates": [ 50.1779602, 26.3018807 ] } },
{ "type": "Feature", "properties": { "category": "hotel", "city": "Al Khobar", "latitude": 26.2956045, "longitude": 50.1770972, "name": "أجنحة نادين الفندقية", "rating": 4.3, "close_open": "open", "close_open_year_test": 2021 }, "geometry": { "type": "Point", "coordinates": [ 50.1770972, 26.2956045 ] } },
{ "type": "Feature", "properties": { "category": "coffee", "city": "Al Khobar", "latitude": 26.291341, "longitude": 50.1805857, "name": "برزان كافيه", "rating": 3.6, "close_open": "open", "close_open_year_test": 2017 }, "geometry": { "type": "Point", "coordinates": [ 50.1805857, 26.291341 ] } },
{ "type": "Feature", "properties": { "category": "coffee", "city": "Al Khobar", "latitude": 26.2981212, "longitude": 50.1807752, "name": "شاهي مشكل", "rating": 5.0, "close_open": "open", "close_open_year_test": 2020 }, "geometry": { "type": "Point", "coordinates": [ 50.1807752, 26.2981212 ] } },
{ "type": "Feature", "properties": { "category": "coffee", "city": "Al Khobar", "latitude": 26.2899689, "longitude": 50.1803511, "name": "ويك اند كافيه", "rating": 3.0, "close_open": "open", "close_open_year_test": 2019 }, "geometry": { "type": "Point", "coordinates": [ 50.1803511, 26.2899689 ] } },
{ "type": "Feature", "properties": { "category": "coffee", "city": "Dhahran", "latitude": 26.2906576, "longitude": 50.1769855, "name": "Equal Coffee Hub | إيكول كافيه", "rating": 5.0, "close_open": "open", "close_open_year_test": 2017 }, "geometry": { "type": "Point", "coordinates": [ 50.1769855, 26.2906576 ] } },
{ "type": "Feature", "properties": { "category": "coffee", "city": "Al Khobar", "latitude": 26.291111, "longitude": 50.180657, "name": "Farggi Café", "rating": null, "close_open": "open", "close_open_year_test": 2017 }, "geometry": { "type": "Point", "coordinates": [ 50.180657, 26.291111 ] } },
{ "type": "Feature", "properties": { "category": "hotel", "city": "Al Khobar", "latitude": 26.2886338, "longitude": 50.1873999, "name": "tuwaren suites", "rating": 3.7, "close_open": "open", "close_open_year_test": 2019 }, "geometry": { "type": "Point", "coordinates": [ 50.1873999, 26.2886338 ] } },
{ "type": "Feature", "properties": { "category": "hotel", "city": "Al Khobar", "latitude": 26.2980066, "longitude": 50.1786256, "name": "اجواء 4", "rating": 3.7, "close_open": "open", "close_open_year_test": 2021 }, "geometry": { "type": "Point", "coordinates": [ 50.1786256, 26.2980066 ] } },
{ "type": "Feature", "properties": { "category": "resturant", "city": "Al Khobar", "latitude": 26.3010957, "longitude": 50.1805033, "name": "Spot Al-Olaya", "rating": 4.0, "close_open": "close", "close_open_year_test": 2018 }, "geometry": { "type": "Point", "coordinates": [ 50.1805033, 26.301095699999987 ] } },
{ "type": "Feature", "properties": { "category": "resturant", "city": "Al Khobar", "latitude": 26.3008242, "longitude": 50.1787554, "name": "طاسه", "rating": 4.8, "close_open": "close", "close_open_year_test": 2019 }, "geometry": { "type": "Point", "coordinates": [ 50.1787554, 26.3008242 ] } },
{ "type": "Feature", "properties": { "category": "coffee", "city": "Al Khobar", "latitude": 26.3059352, "longitude": 50.1842546, "name": "Tucano Coffee Salvador", "rating": 4.7, "close_open": "open", "close_open_year_test": 2017 }, "geometry": { "type": "Point", "coordinates": [ 50.1842546, 26.3059352 ] } },
{ "type": "Feature", "properties": { "category": "coffee", "city": "Al Khobar", "latitude": 26.3024705, "longitude": 50.177569, "name": "Qaf Coffee Roasters", "rating": 4.4, "close_open": "open", "close_open_year_test": 2021 }, "geometry": { "type": "Point", "coordinates": [ 50.177569, 26.3024705 ] } },
{ "type": "Feature", "properties": { "category": "hotel", "city": "Al Khobar", "latitude": 26.2941427, "longitude": 50.1767519, "name": "نسيم العليا", "rating": 3.7, "close_open": "open", "close_open_year_test": 2020 }, "geometry": { "type": "Point", "coordinates": [ 50.1767519, 26.2941427 ] } },
{ "type": "Feature", "properties": { "category": "resturant", "city": "Al Khobar", "latitude": 26.29106, "longitude": 50.1808665, "name": "Iranian Cuisine", "rating": 3.0, "close_open": "open", "close_open_year_test": 2019 }, "geometry": { "type": "Point", "coordinates": [ 50.1808665, 26.29106 ] } },
{ "type": "Feature", "properties": { "category": "resturant", "city": "Al Khobar", "latitude": 26.2998344, "longitude": 50.1803689, "name": "U TURN", "rating": 5.0, "close_open": "close", "close_open_year_test": 2021 }, "geometry": { "type": "Point", "coordinates": [ 50.1803689, 26.2998344 ] } },
{ "type": "Feature", "properties": { "category": "coffee", "city": "Dammam", "latitude": 26.289806, "longitude": 50.181026, "name": "Costa Coffee", "rating": 3.6, "close_open": "open", "close_open_year_test": 2021 }, "geometry": { "type": "Point", "coordinates": [ 50.181026, 26.289806 ] } },
{ "type": "Feature", "properties": { "category": "coffee", "city": "Al Khobar", "latitude": 26.3057416, "longitude": 50.1754645, "name": "Special O2 Lounge", "rating": 5.0, "close_open": "open", "close_open_year_test": 2017 }, "geometry": { "type": "Point", "coordinates": [ 50.1754645, 26.3057416 ] } },
{ "type": "Feature", "properties": { "category": "coffee", "city": "Al Khobar", "latitude": 26.2901906, "longitude": 50.1809801, "name": "دال كافيه", "rating": 4.5, "close_open": "open", "close_open_year_test": 2021 }, "geometry": { "type": "Point", "coordinates": [ 50.1809801, 26.2901906 ] } },
{ "type": "Feature", "properties": { "category": "coffee", "city": "Al Khobar", "latitude": 26.291454, "longitude": 50.1823149, "name": "مقهى ومحمصة الخيل الأسود Black Horse", "rating": 4.4, "close_open": "open", "close_open_year_test": 2021 }, "geometry": { "type": "Point", "coordinates": [ 50.1823149, 26.291454 ] } },
{ "type": "Feature", "properties": { "category": "resturant", "city": "Al Khobar", "latitude": 26.2994396, "longitude": 50.1741561, "name": "The Town", "rating": 4.3, "close_open": "open", "close_open_year_test": 2019 }, "geometry": { "type": "Point", "coordinates": [ 50.1741561, 26.2994396 ] } },
{ "type": "Feature", "properties": { "category": "coffee", "city": "Al Khobar", "latitude": 26.3004747, "longitude": 50.1722021, "name": "Van Houtte Cafe", "rating": 4.2, "close_open": "open", "close_open_year_test": 2017 }, "geometry": { "type": "Point", "coordinates": [ 50.1722021, 26.3004747 ] } },
{ "type": "Feature", "properties": { "category": "hotel", "city": "Al Khobar", "latitude": 26.2899281, "longitude": 50.1876655, "name": "Al Jury Suites Hotel - Al Khobar", "rating": 3.4, "close_open": "open", "close_open_year_test": 2020 }, "geometry": { "type": "Point", "coordinates": [ 50.1876655, 26.2899281 ] } },
{ "type": "Feature", "properties": { "category": "hotel", "city": "Al Khobar", "latitude": 26.3045368, "longitude": 50.1740951, "name": "Aloft Dhahran", "rating": 4.1, "close_open": "open", "close_open_year_test": 2018 }, "geometry": { "type": "Point", "coordinates": [ 50.1740951, 26.3045368 ] } },
{ "type": "Feature", "properties": { "category": "resturant", "city": "Al Khobar", "latitude": 26.2997203, "longitude": 50.1799808, "name": "Burger Exlence", "rating": 1.0, "close_open": "close", "close_open_year_test": 2020 }, "geometry": { "type": "Point", "coordinates": [ 50.1799808, 26.2997203 ] } },
{ "type": "Feature", "properties": { "category": "coffee", "city": "Al Khobar", "latitude": 26.3074576, "longitude": 50.1786831, "name": "Caffeination", "rating": 4.1, "close_open": "open", "close_open_year_test": 2021 }, "geometry": { "type": "Point", "coordinates": [ 50.1786831, 26.3074576 ] } },
{ "type": "Feature", "properties": { "category": "hotel", "city": "Al Khobar", "latitude": 26.2897442, "longitude": 50.1841544, "name": "فندق بدورالشرق٣", "rating": 4.1, "close_open": "open", "close_open_year_test": 2021 }, "geometry": { "type": "Point", "coordinates": [ 50.1841544, 26.2897442 ] } },
{ "type": "Feature", "properties": { "category": "hotel", "city": "Al Khobar", "latitude": 26.2937521, "longitude": 50.1764612, "name": "Hotel mayz", "rating": 3.1, "close_open": "open", "close_open_year_test": 2019 }, "geometry": { "type": "Point", "coordinates": [ 50.1764612, 26.2937521 ] } },
{ "type": "Feature", "properties": { "category": "hotel", "city": "Al Khobar", "latitude": 26.2912128, "longitude": 50.1861886, "name": "Doha Almmlka Hotel Suites (Families Only)", "rating": 3.9, "close_open": "open", "close_open_year_test": 2020 }, "geometry": { "type": "Point", "coordinates": [ 50.1861886, 26.2912128 ] } },
{ "type": "Feature", "properties": { "category": "resturant", "city": "Al Khobar", "latitude": 26.3001988, "longitude": 50.1795672, "name": "كبابشينو - Kebabchino", "rating": 4.7, "close_open": "close", "close_open_year_test": 2018 }, "geometry": { "type": "Point", "coordinates": [ 50.1795672, 26.3001988 ] } },
{ "type": "Feature", "properties": { "category": "resturant", "city": "Al Khobar", "latitude": 26.3013413, "longitude": 50.1804796, "name": "O'GO", "rating": 3.8, "close_open": "close", "close_open_year_test": 2017 }, "geometry": { "type": "Point", "coordinates": [ 50.1804796, 26.3013413 ] } },
{ "type": "Feature", "properties": { "category": "coffee", "city": "Al Khobar", "latitude": 26.2904861, "longitude": 50.1784025, "name": "Rosalie Cafe", "rating": 4.6, "close_open": "open", "close_open_year_test": 2021 }, "geometry": { "type": "Point", "coordinates": [ 50.1784025, 26.2904861 ] } },
{ "type": "Feature", "properties": { "category": "coffee", "city": "Al Khobar", "latitude": 26.2982393, "longitude": 50.180744, "name": "40 Cafe", "rating": 4.5, "close_open": "open", "close_open_year_test": 2020 }, "geometry": { "type": "Point", "coordinates": [ 50.180744, 26.2982393 ] } },
{ "type": "Feature", "properties": { "category": "coffee", "city": "Al Khobar", "latitude": 26.2984369, "longitude": 50.181188, "name": "Mantorose Cafe", "rating": 4.3, "close_open": "open", "close_open_year_test": 2020 }, "geometry": { "type": "Point", "coordinates": [ 50.181188, 26.298436899999988 ] } },
{ "type": "Feature", "properties": { "category": "coffee", "city": "Al Khobar", "latitude": 26.2920954, "longitude": 50.1741816, "name": "Pianolla Cafe", "rating": 3.8, "close_open": "open", "close_open_year_test": 2017 }, "geometry": { "type": "Point", "coordinates": [ 50.1741816, 26.2920954 ] } },
{ "type": "Feature", "properties": { "category": "hotel", "city": "Al Khobar", "latitude": 26.304118, "longitude": 50.1745367, "name": "DoubleTree by Hilton Dhahran", "rating": 4.0, "close_open": "open", "close_open_year_test": 2017 }, "geometry": { "type": "Point", "coordinates": [ 50.1745367, 26.304118 ] } },
{ "type": "Feature", "properties": { "category": "hotel", "city": "Al Khobar", "latitude": 26.2935101, "longitude": 50.1752614, "name": "Blue Sands Casabella", "rating": 3.6, "close_open": "open", "close_open_year_test": 2021 }, "geometry": { "type": "Point", "coordinates": [ 50.1752614, 26.2935101 ] } },
{ "type": "Feature", "properties": { "category": "hotel", "city": "Al Khobar", "latitude": 26.295526, "longitude": 50.1775965, "name": "Marseille suites", "rating": 3.8, "close_open": "open", "close_open_year_test": 2019 }, "geometry": { "type": "Point", "coordinates": [ 50.1775965, 26.295526 ] } },
{ "type": "Feature", "properties": { "category": "resturant", "city": "Al Khobar", "latitude": 26.2995023, "longitude": 50.1741135, "name": "BIG BUN", "rating": 3.9, "close_open": "open", "close_open_year_test": 2020 }, "geometry": { "type": "Point", "coordinates": [ 50.1741135, 26.2995023 ] } },
{ "type": "Feature", "properties": { "category": "hotel", "city": "Al Khobar", "latitude": 26.2909731, "longitude": 50.1825516, "name": "Grand Mayral Hotel", "rating": 4.0, "close_open": "open", "close_open_year_test": 2017 }, "geometry": { "type": "Point", "coordinates": [ 50.1825516, 26.2909731 ] } },
{ "type": "Feature", "properties": { "category": "coffee", "city": "Al Khobar", "latitude": 26.3032768, "longitude": 50.1779013, "name": "Blue.White", "rating": 4.4, "close_open": "open", "close_open_year_test": 2018 }, "geometry": { "type": "Point", "coordinates": [ 50.1779013, 26.3032768 ] } },
{ "type": "Feature", "properties": { "category": "coffee", "city": "Al Khobar", "latitude": 26.2916304, "longitude": 50.1801134, "name": "Molten Chocolate Cafe | مولتن شوكلت كافيه", "rating": 4.3, "close_open": "open", "close_open_year_test": 2018 }, "geometry": { "type": "Point", "coordinates": [ 50.1801134, 26.2916304 ] } },
{ "type": "Feature", "properties": { "category": "coffee", "city": "Al Khobar", "latitude": 26.2959101, "longitude": 50.1775214, "name": "Toss Eatery & Cafe", "rating": 4.4, "close_open": "open", "close_open_year_test": 2020 }, "geometry": { "type": "Point", "coordinates": [ 50.1775214, 26.2959101 ] } },
{ "type": "Feature", "properties": { "category": "hotel", "city": "Al Khobar", "latitude": 26.2980443, "longitude": 50.1701818, "name": "Ajwaa Furnished Apartments", "rating": 3.8, "close_open": "open", "close_open_year_test": 2019 }, "geometry": { "type": "Point", "coordinates": [ 50.1701818, 26.2980443 ] } },
{ "type": "Feature", "properties": { "category": "resturant", "city": "Al Khobar", "latitude": 26.3026987, "longitude": 50.176514, "name": "Tbr Night", "rating": 4.4, "close_open": "open", "close_open_year_test": 2017 }, "geometry": { "type": "Point", "coordinates": [ 50.176514, 26.3026987 ] } },
{ "type": "Feature", "properties": { "category": "coffee", "city": "Al Khobar", "latitude": 26.2985763, "longitude": 50.1806165, "name": "Etratea - شاي عطرة", "rating": 4.7, "close_open": "open", "close_open_year_test": 2021 }, "geometry": { "type": "Point", "coordinates": [ 50.1806165, 26.2985763 ] } },
{ "type": "Feature", "properties": { "category": "coffee", "city": "Al Khobar", "latitude": 26.290514, "longitude": 50.1796755, "name": "Dipnfly", "rating": 2.4, "close_open": "open", "close_open_year_test": 2017 }, "geometry": { "type": "Point", "coordinates": [ 50.1796755, 26.290514 ] } },
{ "type": "Feature", "properties": { "category": "coffee", "city": "Al Khobar", "latitude": 26.2913235, "longitude": 50.1803377, "name": "GLĀDIO CAFÉ", "rating": 4.6, "close_open": "open", "close_open_year_test": 2017 }, "geometry": { "type": "Point", "coordinates": [ 50.1803377, 26.2913235 ] } },
{ "type": "Feature", "properties": { "category": "business", "city": "Al Khobar", "latitude": 26.3004967, "longitude": 50.1719936, "name": "PPE international LLC", "rating": null, "close_open": "open", "close_open_year_test": 2020 }, "geometry": { "type": "Point", "coordinates": [ 50.1719936, 26.3004967 ] } },
{ "type": "Feature", "properties": { "category": "resturant", "city": "Al Khobar", "latitude": 26.2994743, "longitude": 50.1807967, "name": "Casa Fish", "rating": 3.8, "close_open": "close", "close_open_year_test": 2019 }, "geometry": { "type": "Point", "coordinates": [ 50.1807967, 26.2994743 ] } },
{ "type": "Feature", "properties": { "category": "resturant", "city": "Al Khobar", "latitude": 26.3006481, "longitude": 50.1792782, "name": "Snack Masters سناك ماسترز", "rating": 1.0, "close_open": "close", "close_open_year_test": 2017 }, "geometry": { "type": "Point", "coordinates": [ 50.1792782, 26.3006481 ] } },
{ "type": "Feature", "properties": { "category": "coffee", "city": "Al Khobar", "latitude": 26.2913075, "longitude": 50.1809882, "name": "Starbucks", "rating": 4.0, "close_open": "open", "close_open_year_test": 2021 }, "geometry": { "type": "Point", "coordinates": [ 50.1809882, 26.2913075 ] } },
{ "type": "Feature", "properties": { "category": "hotel", "city": "Al Khobar", "latitude": 26.2932357, "longitude": 50.1793498, "name": "سوات العليا للشقق الفندقية", "rating": 4.7, "close_open": "open", "close_open_year_test": 2019 }, "geometry": { "type": "Point", "coordinates": [ 50.1793498, 26.2932357 ] } },
{ "type": "Feature", "properties": { "category": "hotel", "city": "Al Khobar", "latitude": 26.3060891, "longitude": 50.1752244, "name": "Aswar Boutique Hotel", "rating": 3.8, "close_open": "open", "close_open_year_test": 2017 }, "geometry": { "type": "Point", "coordinates": [ 50.1752244, 26.3060891 ] } },
{ "type": "Feature", "properties": { "category": "coffee", "city": "Al Khobar", "latitude": 26.2970995, "longitude": 50.1716125, "name": "كوفي coffee للقهوه العربيه", "rating": 2.8, "close_open": "open", "close_open_year_test": 2021 }, "geometry": { "type": "Point", "coordinates": [ 50.1716125, 26.2970995 ] } },
{ "type": "Feature", "properties": { "category": "coffee", "city": "Al Khobar", "latitude": 26.2997955, "longitude": 50.1796369, "name": "Memories coffee", "rating": 4.5, "close_open": "close", "close_open_year_test": 2018 }, "geometry": { "type": "Point", "coordinates": [ 50.1796369, 26.299795499999988 ] } },
{ "type": "Feature", "properties": { "category": "coffee", "city": "Al Khobar", "latitude": 26.3009917, "longitude": 50.1794415, "name": "EL SAMNY", "rating": 4.2, "close_open": "close", "close_open_year_test": 2019 }, "geometry": { "type": "Point", "coordinates": [ 50.1794415, 26.3009917 ] } },
{ "type": "Feature", "properties": { "category": "coffee", "city": "Al Khobar", "latitude": 26.3013108, "longitude": 50.179119, "name": "ADRS", "rating": 4.2, "close_open": "close", "close_open_year_test": 2018 }, "geometry": { "type": "Point", "coordinates": [ 50.179119, 26.3013108 ] } },
{ "type": "Feature", "properties": { "category": "coffee", "city": "Al Khobar", "latitude": 26.3067266, "longitude": 50.1759685, "name": "Jumanah Cafe", "rating": 4.8, "close_open": "open", "close_open_year_test": 2017 }, "geometry": { "type": "Point", "coordinates": [ 50.1759685, 26.3067266 ] } },
{ "type": "Feature", "properties": { "category": "coffee", "city": "Dhahran", "latitude": 26.2935141, "longitude": 50.1720058, "name": "Coffee Valley", "rating": 3.7, "close_open": "open", "close_open_year_test": 2021 }, "geometry": { "type": "Point", "coordinates": [ 50.1720058, 26.2935141 ] } },
{ "type": "Feature", "properties": { "category": "coffee", "city": "Al Khobar", "latitude": 26.3009375, "longitude": 50.1714375, "name": "Over Dose", "rating": 4.2, "close_open": "open", "close_open_year_test": 2021 }, "geometry": { "type": "Point", "coordinates": [ 50.1714375, 26.3009375 ] } },
{ "type": "Feature", "properties": { "category": "coffee", "city": "Al Khobar", "latitude": 26.2997134, "longitude": 50.1798403, "name": "كافيهات ترك", "rating": null, "close_open": "close", "close_open_year_test": 2019 }, "geometry": { "type": "Point", "coordinates": [ 50.1798403, 26.2997134 ] } },
{ "type": "Feature", "properties": { "category": "coffee", "city": "Al Khobar", "latitude": 26.3007518, "longitude": 50.1788145, "name": "Ganash coffe", "rating": 3.8, "close_open": "close", "close_open_year_test": 2020 }, "geometry": { "type": "Point", "coordinates": [ 50.1788145, 26.3007518 ] } },
{ "type": "Feature", "properties": { "category": "coffee", "city": "Al Khobar", "latitude": 26.3028574, "longitude": 50.1763373, "name": "Pluma Café", "rating": 4.4, "close_open": "open", "close_open_year_test": 2020 }, "geometry": { "type": "Point", "coordinates": [ 50.1763373, 26.3028574 ] } },
{ "type": "Feature", "properties": { "category": "coffee", "city": "Al Khobar", "latitude": 26.3041775, "longitude": 50.1784357, "name": "Left | ليفت", "rating": 4.3, "close_open": "open", "close_open_year_test": 2020 }, "geometry": { "type": "Point", "coordinates": [ 50.1784357, 26.3041775 ] } },
{ "type": "Feature", "properties": { "category": "coffee", "city": "Al Khobar", "latitude": 26.3058354, "longitude": 50.1829567, "name": "7 Grams - City Walk", "rating": 4.4, "close_open": "open", "close_open_year_test": 2019 }, "geometry": { "type": "Point", "coordinates": [ 50.1829567, 26.3058354 ] } },
{ "type": "Feature", "properties": { "category": "coffee", "city": "Al Khobar", "latitude": 26.2913465, "longitude": 50.1799395, "name": "Drippin دريبن", "rating": 4.0, "close_open": "open", "close_open_year_test": 2019 }, "geometry": { "type": "Point", "coordinates": [ 50.1799395, 26.2913465 ] } },
{ "type": "Feature", "properties": { "category": "resturant", "city": "Al Khobar", "latitude": 26.2991798, "longitude": 50.1808875, "name": "Naranj Damascus | مطعم نارنج دمشق", "rating": 4.1, "close_open": "close", "close_open_year_test": 2018 }, "geometry": { "type": "Point", "coordinates": [ 50.1808875, 26.2991798 ] } },
{ "type": "Feature", "properties": { "category": "coffee", "city": "Al Khobar", "latitude": 26.2993121, "longitude": 50.1801758, "name": "Shahista شاهيستا", "rating": 4.7, "close_open": "close", "close_open_year_test": 2019 }, "geometry": { "type": "Point", "coordinates": [ 50.1801758, 26.2993121 ] } },
{ "type": "Feature", "properties": { "category": "coffee", "city": "Al Khobar", "latitude": 26.2997042, "longitude": 50.1791946, "name": "Al kaif cafe", "rating": 5.0, "close_open": "close", "close_open_year_test": 2021 }, "geometry": { "type": "Point", "coordinates": [ 50.1791946, 26.2997042 ] } },
{ "type": "Feature", "properties": { "category": "coffee", "city": "Al Khobar", "latitude": 26.299723, "longitude": 50.1800373, "name": "كرك باشا", "rating": 4.1, "close_open": "close", "close_open_year_test": 2017 }, "geometry": { "type": "Point", "coordinates": [ 50.1800373, 26.299723 ] } },
{ "type": "Feature", "properties": { "category": "coffee", "city": "Al Khobar", "latitude": 26.2998344, "longitude": 50.1803689, "name": "Positive", "rating": null, "close_open": "close", "close_open_year_test": 2020 }, "geometry": { "type": "Point", "coordinates": [ 50.1803689, 26.2998344 ] } },
{ "type": "Feature", "properties": { "category": "coffee", "city": "Al Khobar", "latitude": 26.30103, "longitude": 50.18055, "name": "dp|مشروبات الطاقة", "rating": null, "close_open": "close", "close_open_year_test": 2019 }, "geometry": { "type": "Point", "coordinates": [ 50.18055, 26.30103 ] } },
{ "type": "Feature", "properties": { "category": "hotel", "city": "Al Khobar", "latitude": 26.2950074, "longitude": 50.1770681, "name": "سيرين للاجنحة الفندقية", "rating": 3.8, "close_open": "open", "close_open_year_test": 2021 }, "geometry": { "type": "Point", "coordinates": [ 50.1770681, 26.2950074 ] } },
{ "type": "Feature", "properties": { "category": "coffee", "city": "Al Khobar", "latitude": 26.3056544, "longitude": 50.1783293, "name": "Boad Coffee Roasters", "rating": 4.3, "close_open": "open", "close_open_year_test": 2018 }, "geometry": { "type": "Point", "coordinates": [ 50.1783293, 26.3056544 ] } },
{ "type": "Feature", "properties": { "category": "coffee", "city": "Al Khobar", "latitude": 26.2908302, "longitude": 50.1805472, "name": "Tim Hortons", "rating": 4.1, "close_open": "open", "close_open_year_test": 2017 }, "geometry": { "type": "Point", "coordinates": [ 50.1805472, 26.2908302 ] } },
{ "type": "Feature", "properties": { "category": "coffee", "city": "Al Khobar", "latitude": 26.3062677, "longitude": 50.1799887, "name": "LA PAZZIA", "rating": 4.1, "close_open": "open", "close_open_year_test": 2021 }, "geometry": { "type": "Point", "coordinates": [ 50.1799887, 26.3062677 ] } },
{ "type": "Feature", "properties": { "category": "hotel", "city": "Al Khobar", "latitude": 26.3069441, "longitude": 50.1757877, "name": "Hilton Garden Inn Al Khobar", "rating": 4.1, "close_open": "open", "close_open_year_test": 2018 }, "geometry": { "type": "Point", "coordinates": [ 50.1757877, 26.3069441 ] } },
{ "type": "Feature", "properties": { "category": "hotel", "city": "Al Khobar", "latitude": 26.2903118, "longitude": 50.1772925, "name": "Grand Hyatt Al Khobar Hotel And Residences", "rating": 4.5, "close_open": "open", "close_open_year_test": 2021 }, "geometry": { "type": "Point", "coordinates": [ 50.1772925, 26.2903118 ] } },
{ "type": "Feature", "properties": { "category": "hotel", "city": "Al Khobar", "latitude": 26.2989718, "longitude": 50.1783532, "name": "OYO 199 Rafal Al Olaya", "rating": 3.4, "close_open": "open", "close_open_year_test": 2020 }, "geometry": { "type": "Point", "coordinates": [ 50.1783532, 26.2989718 ] } },
{ "type": "Feature", "properties": { "category": "hotel", "city": "Al Khobar", "latitude": 26.3050071, "longitude": 50.1744581, "name": "Zara Continental Hotel", "rating": 3.8, "close_open": "open", "close_open_year_test": 2017 }, "geometry": { "type": "Point", "coordinates": [ 50.1744581, 26.3050071 ] } },
{ "type": "Feature", "properties": { "category": "hotel", "city": "Al Khobar", "latitude": 26.2994136, "longitude": 50.1751857, "name": "BN Residence", "rating": 4.7, "close_open": "open", "close_open_year_test": 2017 }, "geometry": { "type": "Point", "coordinates": [ 50.1751857, 26.2994136 ] } },
{ "type": "Feature", "properties": { "category": "hotel", "city": "Al Khobar", "latitude": 26.2984989, "longitude": 50.1770272, "name": "Beata Garden Apart Hotel", "rating": 4.5, "close_open": "open", "close_open_year_test": 2020 }, "geometry": { "type": "Point", "coordinates": [ 50.1770272, 26.2984989 ] } },
{ "type": "Feature", "properties": { "category": "hotel", "city": "Al Khobar", "latitude": 26.3056257, "longitude": 50.1779549, "name": "Ramada Encore by Wyndham Al Khobar Olaya", "rating": 3.7, "close_open": "open", "close_open_year_test": 2019 }, "geometry": { "type": "Point", "coordinates": [ 50.1779549, 26.3056257 ] } },
{ "type": "Feature", "properties": { "category": "hotel", "city": "Al Khobar", "latitude": 26.3064778, "longitude": 50.1782019, "name": "Safwat alkhobar hotel", "rating": 4.0, "close_open": "open", "close_open_year_test": 2017 }, "geometry": { "type": "Point", "coordinates": [ 50.1782019, 26.3064778 ] } },
{ "type": "Feature", "properties": { "category": "hotel", "city": "Al Khobar", "latitude": 26.2904209, "longitude": 50.1853406, "name": "شقق شالي ريزيدنس", "rating": 3.2, "close_open": "open", "close_open_year_test": 2018 }, "geometry": { "type": "Point", "coordinates": [ 50.1853406, 26.2904209 ] } },
{ "type": "Feature", "properties": { "category": "hotel", "city": "Al Khobar", "latitude": 26.291836, "longitude": 50.1825983, "name": "روز الجوهرة للوحدات السكنية المفروشة", "rating": 3.1, "close_open": "open", "close_open_year_test": 2020 }, "geometry": { "type": "Point", "coordinates": [ 50.1825983, 26.291836 ] } },
{ "type": "Feature", "properties": { "category": "hotel", "city": "Al Khobar", "latitude": 26.2977284, "longitude": 50.169869, "name": "Lena Park 3", "rating": 3.5, "close_open": "open", "close_open_year_test": 2018 }, "geometry": { "type": "Point", "coordinates": [ 50.169869, 26.2977284 ] } },
{ "type": "Feature", "properties": { "category": "hotel", "city": "Al Khobar", "latitude": 26.3006699, "longitude": 50.1730733, "name": "ضيافة الشرق", "rating": 4.0, "close_open": "open", "close_open_year_test": 2020 }, "geometry": { "type": "Point", "coordinates": [ 50.1730733, 26.3006699 ] } },
{ "type": "Feature", "properties": { "category": "hotel", "city": "Al Khobar", "latitude": 26.288152, "longitude": 50.1878676, "name": "Staybridge Suites al Khobar City, an IHG Hotel", "rating": 4.7, "close_open": "open", "close_open_year_test": 2017 }, "geometry": { "type": "Point", "coordinates": [ 50.1878676, 26.288152 ] } },
{ "type": "Feature", "properties": { "category": "hotel", "city": "Al Khobar", "latitude": 26.3037129, "longitude": 50.1754658, "name": "Hotel Suites Towlan", "rating": 3.4, "close_open": "open", "close_open_year_test": 2020 }, "geometry": { "type": "Point", "coordinates": [ 50.1754658, 26.3037129 ] } },
{ "type": "Feature", "properties": { "category": "hotel", "city": "Al Khobar", "latitude": 26.2884233, "longitude": 50.186719, "name": "Lena Park Hotel", "rating": 3.8, "close_open": "open", "close_open_year_test": 2017 }, "geometry": { "type": "Point", "coordinates": [ 50.186719, 26.2884233 ] } },
{ "type": "Feature", "properties": { "category": "hotel", "city": "Al Khobar", "latitude": 26.288675, "longitude": 50.18627, "name": "OYO 153 Olaya Houses 2", "rating": 4.1, "close_open": "open", "close_open_year_test": 2020 }, "geometry": { "type": "Point", "coordinates": [ 50.18627, 26.288675 ] } },
{ "type": "Feature", "properties": { "category": "hotel", "city": "Al Khobar", "latitude": 26.2902811, "longitude": 50.184431, "name": "Badova residential units", "rating": 3.9, "close_open": "open", "close_open_year_test": 2017 }, "geometry": { "type": "Point", "coordinates": [ 50.184431, 26.2902811 ] } },
{ "type": "Feature", "properties": { "category": "hotel", "city": "Al Khobar", "latitude": 26.2888301, "longitude": 50.1871579, "name": "OYO 529 Masaya Furnished Apartments 2", "rating": 4.0, "close_open": "open", "close_open_year_test": 2017 }, "geometry": { "type": "Point", "coordinates": [ 50.18715790000001, 26.2888301 ] } },
{ "type": "Feature", "properties": { "category": "hotel", "city": "Al Khobar", "latitude": 26.2944348, "longitude": 50.178914, "name": "OYO 154 Olaya Houses", "rating": 3.4, "close_open": "open", "close_open_year_test": 2019 }, "geometry": { "type": "Point", "coordinates": [ 50.178914, 26.2944348 ] } },
{ "type": "Feature", "properties": { "category": "hotel", "city": "Al Khobar", "latitude": 26.2941147, "longitude": 50.1775803, "name": "Violet Hotel", "rating": 3.5, "close_open": "open", "close_open_year_test": 2021 }, "geometry": { "type": "Point", "coordinates": [ 50.1775803, 26.2941147 ] } },
{ "type": "Feature", "properties": { "category": "hotel", "city": "Al Khobar", "latitude": 26.2901478, "longitude": 50.18626, "name": "Crystal Suites", "rating": 3.7, "close_open": "open", "close_open_year_test": 2017 }, "geometry": { "type": "Point", "coordinates": [ 50.18626, 26.2901478 ] } },
{ "type": "Feature", "properties": { "category": "hotel", "city": "Al Khobar", "latitude": 26.2909923, "longitude": 50.1845186, "name": "Marsyal madinah Hotel Al khobar", "rating": 3.0, "close_open": "open", "close_open_year_test": 2019 }, "geometry": { "type": "Point", "coordinates": [ 50.1845186, 26.2909923 ] } },
{ "type": "Feature", "properties": { "category": "hotel", "city": "Al Khobar", "latitude": 26.2991445, "longitude": 50.1783033, "name": "رفال العليا Rafal", "rating": 4.0, "close_open": "open", "close_open_year_test": 2018 }, "geometry": { "type": "Point", "coordinates": [ 50.1783033, 26.2991445 ] } },
{ "type": "Feature", "properties": { "category": "resturant", "city": "Al Khobar", "latitude": 26.292745, "longitude": 50.1808145, "name": "Tuxedo", "rating": 3.9, "close_open": "open", "close_open_year_test": 2020 }, "geometry": { "type": "Point", "coordinates": [ 50.1808145, 26.292745 ] } },
{ "type": "Feature", "properties": { "category": "resturant", "city": "Al Khobar", "latitude": 26.3031656, "longitude": 50.1786326, "name": "كرك سيزون", "rating": 3.7, "close_open": "open", "close_open_year_test": 2018 }, "geometry": { "type": "Point", "coordinates": [ 50.1786326, 26.3031656 ] } },
{ "type": "Feature", "properties": { "category": "resturant", "city": "Al Khobar", "latitude": 26.2895269, "longitude": 50.1877524, "name": "مطعم الساحل الشرقي الخبر", "rating": 4.1, "close_open": "open", "close_open_year_test": 2021 }, "geometry": { "type": "Point", "coordinates": [ 50.1877524, 26.2895269 ] } },
{ "type": "Feature", "properties": { "category": "hotel", "city": "Al Khobar", "latitude": 26.2898415, "longitude": 50.187474, "name": "Grandeur East", "rating": 3.7, "close_open": "open", "close_open_year_test": 2019 }, "geometry": { "type": "Point", "coordinates": [ 50.187474, 26.2898415 ] } },
{ "type": "Feature", "properties": { "category": "hotel", "city": "Al Khobar", "latitude": 26.2915557, "longitude": 50.1859821, "name": "OYO 152 Danat Hotel Apartment", "rating": 3.5, "close_open": "open", "close_open_year_test": 2020 }, "geometry": { "type": "Point", "coordinates": [ 50.1859821, 26.2915557 ] } },
{ "type": "Feature", "properties": { "category": "hotel", "city": "Al Khobar", "latitude": 26.295883, "longitude": 50.1763698, "name": "لينا بارك", "rating": 3.5, "close_open": "open", "close_open_year_test": 2018 }, "geometry": { "type": "Point", "coordinates": [ 50.1763698, 26.295883 ] } },
{ "type": "Feature", "properties": { "category": "hotel", "city": "Al Khobar", "latitude": 26.2959579, "longitude": 50.177575, "name": "Sedra residence alkhobar", "rating": 4.2, "close_open": "open", "close_open_year_test": 2017 }, "geometry": { "type": "Point", "coordinates": [ 50.177575, 26.2959579 ] } },
{ "type": "Feature", "properties": { "category": "hotel", "city": "Al Khobar", "latitude": 26.2938043, "longitude": 50.1792417, "name": "أسوار للأجنحة الفندقية (فرع الراشد مول)", "rating": 4.0, "close_open": "open", "close_open_year_test": 2018 }, "geometry": { "type": "Point", "coordinates": [ 50.1792417, 26.2938043 ] } },
{ "type": "Feature", "properties": { "category": "resturant", "city": "Al Khobar", "latitude": 26.3010247, "longitude": 50.1723092, "name": "iWish Grill & Cafe", "rating": 4.0, "close_open": "open", "close_open_year_test": 2017 }, "geometry": { "type": "Point", "coordinates": [ 50.1723092, 26.3010247 ] } },
{ "type": "Feature", "properties": { "category": "hotel", "city": "Al Khobar", "latitude": 26.2909925, "longitude": 50.1845863, "name": "روزنيري 2", "rating": 3.3, "close_open": "open", "close_open_year_test": 2018 }, "geometry": { "type": "Point", "coordinates": [ 50.1845863, 26.2909925 ] } },
{ "type": "Feature", "properties": { "category": "hotel", "city": "Al Khobar", "latitude": 26.3055626, "longitude": 50.1783363, "name": "فندق جولدن إيليت Golden Elite Hotel", "rating": 4.3, "close_open": "open", "close_open_year_test": 2017 }, "geometry": { "type": "Point", "coordinates": [ 50.1783363, 26.3055626 ] } },
{ "type": "Feature", "properties": { "category": "hotel", "city": "Al Khobar", "latitude": 26.2941718, "longitude": 50.1766996, "name": "هوم إن", "rating": 4.2, "close_open": "open", "close_open_year_test": 2017 }, "geometry": { "type": "Point", "coordinates": [ 50.1766996, 26.2941718 ] } },
{ "type": "Feature", "properties": { "category": "hotel", "city": "Al Khobar", "latitude": 26.2882951, "longitude": 50.1874737, "name": "شالي للاجنحة الفندقية 2", "rating": 3.5, "close_open": "open", "close_open_year_test": 2019 }, "geometry": { "type": "Point", "coordinates": [ 50.1874737, 26.2882951 ] } },
{ "type": "Feature", "properties": { "category": "hotel", "city": "الخبر", "latitude": 26.2905197, "longitude": 50.182367, "name": "سوات للشقق الفندقية 4", "rating": 4.7, "close_open": "open", "close_open_year_test": 2018 }, "geometry": { "type": "Point", "coordinates": [ 50.182367, 26.2905197 ] } },
{ "type": "Feature", "properties": { "category": "hotel", "city": "Al Khobar", "latitude": 26.2975861, "longitude": 50.1732634, "name": "سما الرفاع 2 للشقق المخدومه", "rating": 4.0, "close_open": "open", "close_open_year_test": 2021 }, "geometry": { "type": "Point", "coordinates": [ 50.1732634, 26.2975861 ] } },
{ "type": "Feature", "properties": { "category": "hotel", "city": "Al Khobar", "latitude": 26.297025, "longitude": 50.1713875, "name": "Villa Hotel Apartments Al Khobar", "rating": 3.7, "close_open": "open", "close_open_year_test": 2019 }, "geometry": { "type": "Point", "coordinates": [ 50.1713875, 26.297025 ] } },
{ "type": "Feature", "properties": { "category": "hotel", "city": "Al Khobar", "latitude": 26.2952903, "longitude": 50.1776252, "name": "Judy Palace", "rating": 3.6, "close_open": "open", "close_open_year_test": 2019 }, "geometry": { "type": "Point", "coordinates": [ 50.1776252, 26.2952903 ] } },
{ "type": "Feature", "properties": { "category": "hotel", "city": "Al Khobar", "latitude": 26.2889253, "longitude": 50.1858704, "name": "Mawasim Al Sharqiyah", "rating": 3.8, "close_open": "open", "close_open_year_test": 2020 }, "geometry": { "type": "Point", "coordinates": [ 50.1858704, 26.2889253 ] } },
{ "type": "Feature", "properties": { "category": "hotel", "city": "Al Khobar", "latitude": 26.2948077, "longitude": 50.1713741, "name": "نزل اليوم للاجنحة الفندقية", "rating": 3.5, "close_open": "open", "close_open_year_test": 2018 }, "geometry": { "type": "Point", "coordinates": [ 50.1713741, 26.2948077 ] } },
{ "type": "Feature", "properties": { "category": "resturant", "city": "Al Khobar", "latitude": 26.2997155, "longitude": 50.1747248, "name": "Hamburgini هامبرغيني - Olaya", "rating": 3.9, "close_open": "open", "close_open_year_test": 2021 }, "geometry": { "type": "Point", "coordinates": [ 50.1747248, 26.2997155 ] } },
{ "type": "Feature", "properties": { "category": "hotel", "city": "Al Khobar", "latitude": 26.293978, "longitude": 50.1763207, "name": "الدانة الخليجية للشقق المفروشة", "rating": 3.7, "close_open": "open", "close_open_year_test": 2019 }, "geometry": { "type": "Point", "coordinates": [ 50.1763207, 26.293978 ] } },
{ "type": "Feature", "properties": { "category": "hotel", "city": "Al Khobar", "latitude": 26.2950989, "longitude": 50.1779244, "name": "Nayyara", "rating": 3.9, "close_open": "open", "close_open_year_test": 2017 }, "geometry": { "type": "Point", "coordinates": [ 50.1779244, 26.2950989 ] } },
{ "type": "Feature", "properties": { "category": "hotel", "city": "Al Khobar", "latitude": 26.2937516, "longitude": 50.1782808, "name": "Gold Inn Hotel", "rating": 3.7, "close_open": "open", "close_open_year_test": 2018 }, "geometry": { "type": "Point", "coordinates": [ 50.1782808, 26.2937516 ] } },
{ "type": "Feature", "properties": { "category": "hotel", "city": "Al Khobar", "latitude": 26.2953192, "longitude": 50.178197, "name": "Arwa Suites", "rating": 3.7, "close_open": "open", "close_open_year_test": 2020 }, "geometry": { "type": "Point", "coordinates": [ 50.178197, 26.2953192 ] } },
{ "type": "Feature", "properties": { "category": "hotel", "city": "Al Khobar", "latitude": 26.292374, "longitude": 50.1835972, "name": "Massa AL Khobar Furnished Apartments", "rating": 3.5, "close_open": "open", "close_open_year_test": 2021 }, "geometry": { "type": "Point", "coordinates": [ 50.1835972, 26.292374 ] } },
{ "type": "Feature", "properties": { "category": "hotel", "city": "Al Khobar", "latitude": 26.2933374, "longitude": 50.1785652, "name": "OYO 288 Diafati Residential Units", "rating": 2.8, "close_open": "open", "close_open_year_test": 2021 }, "geometry": { "type": "Point", "coordinates": [ 50.1785652, 26.2933374 ] } },
{ "type": "Feature", "properties": { "category": "hotel", "city": "Al Khobar", "latitude": 26.2944087, "longitude": 50.1738756, "name": "AL-Rebat Hotel Apartments", "rating": 3.4, "close_open": "open", "close_open_year_test": 2018 }, "geometry": { "type": "Point", "coordinates": [ 50.1738756, 26.2944087 ] } },
{ "type": "Feature", "properties": { "category": "hotel", "city": "Al Khobar", "latitude": 26.2905414, "longitude": 50.1854664, "name": "بدور الشرق للوحدات السكنية المفروشة", "rating": 3.8, "close_open": "open", "close_open_year_test": 2019 }, "geometry": { "type": "Point", "coordinates": [ 50.1854664, 26.2905414 ] } },
{ "type": "Feature", "properties": { "category": "hotel", "city": "Al Khobar", "latitude": 26.2934048, "longitude": 50.1789417, "name": "رموز إن للشقق المفروشه", "rating": 3.4, "close_open": "open", "close_open_year_test": 2019 }, "geometry": { "type": "Point", "coordinates": [ 50.1789417, 26.2934048 ] } },
{ "type": "Feature", "properties": { "category": "hotel", "city": "Al Khobar", "latitude": 26.2941436, "longitude": 50.1740704, "name": "تمايا للشقق الفندقيه", "rating": 3.6, "close_open": "open", "close_open_year_test": 2018 }, "geometry": { "type": "Point", "coordinates": [ 50.1740704, 26.2941436 ] } },
{ "type": "Feature", "properties": { "category": "hotel", "city": "Al Khobar", "latitude": 26.2937579, "longitude": 50.1780568, "name": "Entity Makarim Hotel Suites", "rating": 4.0, "close_open": "open", "close_open_year_test": 2018 }, "geometry": { "type": "Point", "coordinates": [ 50.1780568, 26.2937579 ] } },
{ "type": "Feature", "properties": { "category": "hotel", "city": "Al Khobar", "latitude": 26.2936388, "longitude": 50.1746145, "name": "Grand Plaza Hotel Suites", "rating": 3.7, "close_open": "open", "close_open_year_test": 2018 }, "geometry": { "type": "Point", "coordinates": [ 50.1746145, 26.2936388 ] } },
{ "type": "Feature", "properties": { "category": "resturant", "city": "Al Khobar", "latitude": 26.3059689, "longitude": 50.1840338, "name": "OBAO", "rating": 4.5, "close_open": "open", "close_open_year_test": 2017 }, "geometry": { "type": "Point", "coordinates": [ 50.1840338, 26.3059689 ] } },
{ "type": "Feature", "properties": { "category": "resturant", "city": "Al Khobar", "latitude": 26.3061998, "longitude": 50.180066, "name": "Nashell نشل", "rating": 4.7, "close_open": "open", "close_open_year_test": 2021 }, "geometry": { "type": "Point", "coordinates": [ 50.180066, 26.3061998 ] } },
{ "type": "Feature", "properties": { "category": "resturant", "city": "Al Khobar", "latitude": 26.2981846, "longitude": 50.1808839, "name": "Falafel Lebanon", "rating": 3.9, "close_open": "open", "close_open_year_test": 2020 }, "geometry": { "type": "Point", "coordinates": [ 50.1808839, 26.2981846 ] } },
{ "type": "Feature", "properties": { "category": "hotel", "city": "Al Khobar", "latitude": 26.2887657, "longitude": 50.1872144, "name": "ضيافة 2", "rating": 3.9, "close_open": "open", "close_open_year_test": 2017 }, "geometry": { "type": "Point", "coordinates": [ 50.1872144, 26.288765699999988 ] } },
{ "type": "Feature", "properties": { "category": "hotel", "city": "Al Khobar", "latitude": 26.2949339, "longitude": 50.1719264, "name": "كراون غلوري للاجنحة الفندقية", "rating": 3.4, "close_open": "open", "close_open_year_test": 2017 }, "geometry": { "type": "Point", "coordinates": [ 50.1719264, 26.2949339 ] } },
{ "type": "Feature", "properties": { "category": "hotel", "city": "Al Khobar", "latitude": 26.2947965, "longitude": 50.1789855, "name": "KYAN SHADA | أجنحة كيان شدا", "rating": 3.7, "close_open": "open", "close_open_year_test": 2018 }, "geometry": { "type": "Point", "coordinates": [ 50.1789855, 26.2947965 ] } },
{ "type": "Feature", "properties": { "category": "hotel", "city": "Al Khobar", "latitude": 26.2890783, "longitude": 50.1844703, "name": "خزامى الجواء للشقق الفندقية", "rating": 4.0, "close_open": "open", "close_open_year_test": 2019 }, "geometry": { "type": "Point", "coordinates": [ 50.1844703, 26.2890783 ] } },
{ "type": "Feature", "properties": { "category": "hotel", "city": "Al Khobar", "latitude": 26.2940946, "longitude": 50.1781872, "name": "Alsaarh Apartments", "rating": 3.4, "close_open": "open", "close_open_year_test": 2017 }, "geometry": { "type": "Point", "coordinates": [ 50.1781872, 26.2940946 ] } },
{ "type": "Feature", "properties": { "category": "hotel", "city": "Al Khobar", "latitude": 26.293833, "longitude": 50.1779377, "name": "Makarim Raseel Suite", "rating": 3.9, "close_open": "open", "close_open_year_test": 2018 }, "geometry": { "type": "Point", "coordinates": [ 50.1779377, 26.293833 ] } },
{ "type": "Feature", "properties": { "category": "hotel", "city": "Al Khobar", "latitude": 26.2919553, "longitude": 50.1834306, "name": "OYO 528 Masaya Furnished Apartments", "rating": 3.0, "close_open": "open", "close_open_year_test": 2020 }, "geometry": { "type": "Point", "coordinates": [ 50.1834306, 26.2919553 ] } },
{ "type": "Feature", "properties": { "category": "resturant", "city": "Al Khobar", "latitude": 26.3028771, "longitude": 50.1781128, "name": "Scramble", "rating": 3.8, "close_open": "open", "close_open_year_test": 2017 }, "geometry": { "type": "Point", "coordinates": [ 50.1781128, 26.3028771 ] } },
{ "type": "Feature", "properties": { "category": "resturant", "city": "Al Khobar", "latitude": 26.3042528, "longitude": 50.174521, "name": "Enab W Teen", "rating": 4.3, "close_open": "open", "close_open_year_test": 2019 }, "geometry": { "type": "Point", "coordinates": [ 50.174521, 26.3042528 ] } },
{ "type": "Feature", "properties": { "category": "resturant", "city": "Al Khobar", "latitude": 26.2994791, "longitude": 50.1814211, "name": "Scale سكيل", "rating": 4.1, "close_open": "open", "close_open_year_test": 2019 }, "geometry": { "type": "Point", "coordinates": [ 50.1814211, 26.2994791 ] } },
{ "type": "Feature", "properties": { "category": "resturant", "city": "Al Khobar", "latitude": 26.2948315, "longitude": 50.185283, "name": "Zaitoon Indian Restaurant Khobar Branch", "rating": 4.2, "close_open": "open", "close_open_year_test": 2019 }, "geometry": { "type": "Point", "coordinates": [ 50.185283, 26.2948315 ] } },
{ "type": "Feature", "properties": { "category": "resturant", "city": "Al Khobar", "latitude": 26.2985593, "longitude": 50.1768437, "name": "Fresca Salad Bar", "rating": 4.3, "close_open": "open", "close_open_year_test": 2017 }, "geometry": { "type": "Point", "coordinates": [ 50.1768437, 26.2985593 ] } },
{ "type": "Feature", "properties": { "category": "resturant", "city": "Al Khobar", "latitude": 26.3039044, "longitude": 50.1750869, "name": "Lebdah Palace Restaurant", "rating": 4.3, "close_open": "open", "close_open_year_test": 2020 }, "geometry": { "type": "Point", "coordinates": [ 50.1750869, 26.3039044 ] } },
{ "type": "Feature", "properties": { "category": "resturant", "city": "Al Khobar", "latitude": 26.305422, "longitude": 50.1831744, "name": "Lily Cafe & Flowers", "rating": 4.5, "close_open": "open", "close_open_year_test": 2018 }, "geometry": { "type": "Point", "coordinates": [ 50.1831744, 26.305422 ] } },
{ "type": "Feature", "properties": { "category": "resturant", "city": "Al Khobar", "latitude": 26.3062703, "longitude": 50.1835699, "name": "Onion", "rating": 4.0, "close_open": "open", "close_open_year_test": 2020 }, "geometry": { "type": "Point", "coordinates": [ 50.1835699, 26.3062703 ] } },
{ "type": "Feature", "properties": { "category": "resturant", "city": "Al Khobar", "latitude": 26.2981231, "longitude": 50.1811367, "name": "Nahawand BBQ", "rating": 4.7, "close_open": "open", "close_open_year_test": 2019 }, "geometry": { "type": "Point", "coordinates": [ 50.18113670000001, 26.2981231 ] } },
{ "type": "Feature", "properties": { "category": "resturant", "city": "Al Khobar", "latitude": 26.3009422, "longitude": 50.1716306, "name": "Low Calories", "rating": 4.0, "close_open": "open", "close_open_year_test": 2017 }, "geometry": { "type": "Point", "coordinates": [ 50.1716306, 26.3009422 ] } },
{ "type": "Feature", "properties": { "category": "resturant", "city": "Al Khobar", "latitude": 26.2889925, "longitude": 50.1879702, "name": "Sofrat Soifat مطعم سفرة سعيفات", "rating": 4.1, "close_open": "open", "close_open_year_test": 2020 }, "geometry": { "type": "Point", "coordinates": [ 50.1879702, 26.2889925 ] } },
{ "type": "Feature", "properties": { "category": "resturant", "city": "Al Khobar", "latitude": 26.3072878, "longitude": 50.1782967, "name": "Salt", "rating": 4.6, "close_open": "open", "close_open_year_test": 2021 }, "geometry": { "type": "Point", "coordinates": [ 50.1782967, 26.3072878 ] } },
{ "type": "Feature", "properties": { "category": "resturant", "city": "Al Khobar", "latitude": 26.2910685, "longitude": 50.1796009, "name": "محطة الورق عنب", "rating": 3.5, "close_open": "open", "close_open_year_test": 2021 }, "geometry": { "type": "Point", "coordinates": [ 50.1796009, 26.2910685 ] } },
{ "type": "Feature", "properties": { "category": "resturant", "city": "Al Khobar", "latitude": 26.2945054, "longitude": 50.1860654, "name": "Mansaf AlTaybat (Saudi Cuisine)", "rating": 4.2, "close_open": "open", "close_open_year_test": 2021 }, "geometry": { "type": "Point", "coordinates": [ 50.1860654, 26.2945054 ] } },
{ "type": "Feature", "properties": { "category": "resturant", "city": "Al Khobar", "latitude": 26.290136, "longitude": 50.181503, "name": "McDonald's", "rating": 3.7, "close_open": "open", "close_open_year_test": 2020 }, "geometry": { "type": "Point", "coordinates": [ 50.181503, 26.290136 ] } },
{ "type": "Feature", "properties": { "category": "resturant", "city": "Al Khobar", "latitude": 26.2905136, "longitude": 50.1784766, "name": "Asmahan Restaurant", "rating": 4.6, "close_open": "open", "close_open_year_test": 2021 }, "geometry": { "type": "Point", "coordinates": [ 50.1784766, 26.2905136 ] } },
{ "type": "Feature", "properties": { "category": "resturant", "city": "Al Khobar", "latitude": 26.2904861, "longitude": 50.1784669, "name": "Sakana House Restaurant", "rating": 4.6, "close_open": "open", "close_open_year_test": 2019 }, "geometry": { "type": "Point", "coordinates": [ 50.1784669, 26.2904861 ] } },
{ "type": "Feature", "properties": { "category": "resturant", "city": "Al Khobar", "latitude": 26.2243113, "longitude": 50.1844884, "name": "Quality- Indian Restaurant - Azizia Industrial Area, Alkhobar", "rating": 3.7, "close_open": "open", "close_open_year_test": 2020 }, "geometry": { "type": "Point", "coordinates": [ 50.1844884, 26.2243113 ] } },
{ "type": "Feature", "properties": { "category": "resturant", "city": "ALKHOBAR", "latitude": 26.3054367, "longitude": 50.1831269, "name": "DeFlore ديفلور", "rating": 4.4, "close_open": "open", "close_open_year_test": 2020 }, "geometry": { "type": "Point", "coordinates": [ 50.1831269, 26.3054367 ] } },
{ "type": "Feature", "properties": { "category": "resturant", "city": "Al Khobar", "latitude": 26.2880423, "longitude": 50.1883326, "name": "Madina Restaurant", "rating": 3.8, "close_open": "open", "close_open_year_test": 2017 }, "geometry": { "type": "Point", "coordinates": [ 50.1883326, 26.2880423 ] } },
{ "type": "Feature", "properties": { "category": "resturant", "city": "Al Khobar", "latitude": 26.2918602, "longitude": 50.1809536, "name": "La Casa Pasta", "rating": 3.8, "close_open": "open", "close_open_year_test": 2019 }, "geometry": { "type": "Point", "coordinates": [ 50.1809536, 26.2918602 ] } },
{ "type": "Feature", "properties": { "category": "resturant", "city": "Al Khobar", "latitude": 26.3022654, "longitude": 50.1770251, "name": "شركة مدار الغذائية لتقديم الوجبات ذ.م. م MDAR Foods Co.Ltd", "rating": 4.5, "close_open": "open", "close_open_year_test": 2020 }, "geometry": { "type": "Point", "coordinates": [ 50.1770251, 26.3022654 ] } },
{ "type": "Feature", "properties": { "category": "resturant", "city": "Al Khobar", "latitude": 26.2996079, "longitude": 50.1748787, "name": "Ennabi Grill", "rating": 3.6, "close_open": "open", "close_open_year_test": 2019 }, "geometry": { "type": "Point", "coordinates": [ 50.1748787, 26.2996079 ] } },
{ "type": "Feature", "properties": { "category": "resturant", "city": "Al Khobar", "latitude": 26.2916112, "longitude": 50.1804295, "name": "جلسة الدار | Jalset Aldar", "rating": 4.3, "close_open": "open", "close_open_year_test": 2021 }, "geometry": { "type": "Point", "coordinates": [ 50.1804295, 26.2916112 ] } },
{ "type": "Feature", "properties": { "category": "resturant", "city": "Al Khobar", "latitude": 26.3033547, "longitude": 50.181141, "name": "Rosette مطعم روزيت", "rating": 4.0, "close_open": "open", "close_open_year_test": 2018 }, "geometry": { "type": "Point", "coordinates": [ 50.181141, 26.3033547 ] } },
{ "type": "Feature", "properties": { "category": "resturant", "city": "Al Khobar", "latitude": 26.2897863, "longitude": 50.1811964, "name": "Canton | كانتون", "rating": 4.3, "close_open": "open", "close_open_year_test": 2018 }, "geometry": { "type": "Point", "coordinates": [ 50.1811964, 26.2897863 ] } },
{ "type": "Feature", "properties": { "category": "resturant", "city": "Al Khobar", "latitude": 26.2981832, "longitude": 50.1781703, "name": "VOLO Burger", "rating": 4.5, "close_open": "open", "close_open_year_test": 2020 }, "geometry": { "type": "Point", "coordinates": [ 50.1781703, 26.2981832 ] } },
{ "type": "Feature", "properties": { "category": "resturant", "city": "Al Khobar", "latitude": 26.2988409, "longitude": 50.1762913, "name": "Elif Park", "rating": 3.9, "close_open": "open", "close_open_year_test": 2020 }, "geometry": { "type": "Point", "coordinates": [ 50.1762913, 26.2988409 ] } },
{ "type": "Feature", "properties": { "category": "coffee", "city": "Al Khobar", "latitude": 26.2991167, "longitude": 50.1762225, "name": "مشيرب لاونج", "rating": null, "close_open": "open", "close_open_year_test": 2017 }, "geometry": { "type": "Point", "coordinates": [ 50.1762225, 26.2991167 ] } },
{ "type": "Feature", "properties": { "category": "coffee", "city": "Al Khobar", "latitude": 26.2900348, "longitude": 50.1814726, "name": "مفاد", "rating": null, "close_open": "open", "close_open_year_test": 2019 }, "geometry": { "type": "Point", "coordinates": [ 50.1814726, 26.2900348 ] } },
{ "type": "Feature", "properties": { "category": "resturant", "city": "Al Khobar", "latitude": 26.3056134, "longitude": 50.1831835, "name": "Tenderloin", "rating": 4.6, "close_open": "open", "close_open_year_test": 2017 }, "geometry": { "type": "Point", "coordinates": [ 50.1831835, 26.3056134 ] } },
{ "type": "Feature", "properties": { "category": "resturant", "city": "Al Khobar", "latitude": 26.2901124, "longitude": 50.1801278, "name": "Fuddruckers", "rating": 4.1, "close_open": "open", "close_open_year_test": 2018 }, "geometry": { "type": "Point", "coordinates": [ 50.1801278, 26.2901124 ] } },
{ "type": "Feature", "properties": { "category": "resturant", "city": "Al Khobar", "latitude": 26.2989981, "longitude": 50.1758659, "name": "مطعم هاف كت Half Cut Restaurant", "rating": 4.5, "close_open": "open", "close_open_year_test": 2018 }, "geometry": { "type": "Point", "coordinates": [ 50.1758659, 26.2989981 ] } },
{ "type": "Feature", "properties": { "category": "resturant", "city": "Al Khobar", "latitude": 26.3024601, "longitude": 50.1770412, "name": "hamaya", "rating": 4.3, "close_open": "open", "close_open_year_test": 2019 }, "geometry": { "type": "Point", "coordinates": [ 50.1770412, 26.3024601 ] } },
{ "type": "Feature", "properties": { "category": "resturant", "city": "Al Khobar", "latitude": 26.3059005, "longitude": 50.183583, "name": "Shrimp Zone Al Khobar", "rating": 4.4, "close_open": "open", "close_open_year_test": 2020 }, "geometry": { "type": "Point", "coordinates": [ 50.183583, 26.3059005 ] } },
{ "type": "Feature", "properties": { "category": "resturant", "city": "Al Khobar", "latitude": 26.3053169, "longitude": 50.1830703, "name": "Shandar Restaurant", "rating": 3.8, "close_open": "open", "close_open_year_test": 2018 }, "geometry": { "type": "Point", "coordinates": [ 50.1830703, 26.3053169 ] } },
{ "type": "Feature", "properties": { "category": "resturant", "city": "Al Khobar", "latitude": 26.2921399, "longitude": 50.1822782, "name": "Bough Bistro Lounge", "rating": 4.2, "close_open": "open", "close_open_year_test": 2021 }, "geometry": { "type": "Point", "coordinates": [ 50.1822782, 26.2921399 ] } },
{ "type": "Feature", "properties": { "category": "resturant", "city": "Al Khobar", "latitude": 26.2900885, "longitude": 50.181131, "name": "Subway", "rating": 3.0, "close_open": "open", "close_open_year_test": 2020 }, "geometry": { "type": "Point", "coordinates": [ 50.181131, 26.2900885 ] } },
{ "type": "Feature", "properties": { "category": "coffee", "city": "Al Khobar", "latitude": 26.3032868, "longitude": 50.1779197, "name": "مقها الازراق والابيض", "rating": null, "close_open": "open", "close_open_year_test": 2021 }, "geometry": { "type": "Point", "coordinates": [ 50.1779197, 26.3032868 ] } },
{ "type": "Feature", "properties": { "category": "hotel", "city": "Al Khobar", "latitude": 26.302688, "longitude": 50.178421, "name": "Safwat Al Khobar", "rating": null, "close_open": "open", "close_open_year_test": 2020 }, "geometry": { "type": "Point", "coordinates": [ 50.178421, 26.302688 ] } },
{ "type": "Feature", "properties": { "category": "resturant", "city": "Al Khobar", "latitude": 26.2991197, "longitude": 50.1758119, "name": "Blake Urban Kitchen بليك", "rating": 3.8, "close_open": "open", "close_open_year_test": 2017 }, "geometry": { "type": "Point", "coordinates": [ 50.1758119, 26.2991197 ] } },
{ "type": "Feature", "properties": { "category": "resturant", "city": "Al Khobar", "latitude": 26.3050826, "longitude": 50.1783032, "name": "Kokoro", "rating": 4.5, "close_open": "open", "close_open_year_test": 2020 }, "geometry": { "type": "Point", "coordinates": [ 50.1783032, 26.3050826 ] } },
{ "type": "Feature", "properties": { "category": "resturant", "city": "Al Khobar", "latitude": 26.3004854, "longitude": 50.1736094, "name": "KFC", "rating": 2.6, "close_open": "open", "close_open_year_test": 2021 }, "geometry": { "type": "Point", "coordinates": [ 50.1736094, 26.3004854 ] } },
{ "type": "Feature", "properties": { "category": "resturant", "city": "Al Khobar", "latitude": 26.2917692, "longitude": 50.1861993, "name": "كبدة الواحة", "rating": 3.9, "close_open": "open", "close_open_year_test": 2020 }, "geometry": { "type": "Point", "coordinates": [ 50.1861993, 26.2917692 ] } },
{ "type": "Feature", "properties": { "category": "hotel", "city": "Al Khobar", "latitude": 26.298998, "longitude": 50.178728, "name": "Swiss Spirit Hotel Olaya Al Khobar", "rating": null, "close_open": "open", "close_open_year_test": 2020 }, "geometry": { "type": "Point", "coordinates": [ 50.178728, 26.298998 ] } },
{ "type": "Feature", "properties": { "category": "resturant", "city": "Al Khobar", "latitude": 26.3031849, "longitude": 50.1810448, "name": "Dewa", "rating": 3.6, "close_open": "open", "close_open_year_test": 2017 }, "geometry": { "type": "Point", "coordinates": [ 50.1810448, 26.3031849 ] } },
{ "type": "Feature", "properties": { "category": "coffee", "city": "Al Khobar", "latitude": 26.3005292, "longitude": 50.17363, "name": "Krispy cream doughnuts", "rating": null, "close_open": "open", "close_open_year_test": 2021 }, "geometry": { "type": "Point", "coordinates": [ 50.17363, 26.3005292 ] } },
{ "type": "Feature", "properties": { "category": "business", "city": "Al Khobar", "latitude": 26.3060985, "longitude": 50.1799543, "name": "amcs - Amal Management Consulting Solutions Co", "rating": null, "close_open": "open", "close_open_year_test": 2019 }, "geometry": { "type": "Point", "coordinates": [ 50.1799543, 26.3060985 ] } },
{ "type": "Feature", "properties": { "category": "business", "city": "Al Khobar", "latitude": 26.3029262, "longitude": 50.1782331, "name": "MOTION Supply CHain", "rating": null, "close_open": "open", "close_open_year_test": 2021 }, "geometry": { "type": "Point", "coordinates": [ 50.1782331, 26.3029262 ] } },
{ "type": "Feature", "properties": { "category": "resturant", "city": "Al Khobar", "latitude": 26.306134, "longitude": 50.1834283, "name": "Khobar city walk", "rating": null, "close_open": "open", "close_open_year_test": 2019 }, "geometry": { "type": "Point", "coordinates": [ 50.1834283, 26.306134 ] } },
{ "type": "Feature", "properties": { "category": "resturant", "city": "Al Khobar", "latitude": 26.3000971, "longitude": 50.1741134, "name": "Healthy Gourmet", "rating": 3.9, "close_open": "open", "close_open_year_test": 2020 }, "geometry": { "type": "Point", "coordinates": [ 50.1741134, 26.3000971 ] } },
{ "type": "Feature", "properties": { "category": "resturant", "city": "Al Khobar", "latitude": 26.2906006, "longitude": 50.1798432, "name": "Royal Gulf Chinese Restaurant", "rating": 4.2, "close_open": "open", "close_open_year_test": 2017 }, "geometry": { "type": "Point", "coordinates": [ 50.1798432, 26.2906006 ] } },
{ "type": "Feature", "properties": { "category": "resturant", "city": "Al Khobar", "latitude": 26.2910597, "longitude": 50.1802732, "name": "مطعم الرواق الشعبي / الراشد مول", "rating": 3.9, "close_open": "open", "close_open_year_test": 2021 }, "geometry": { "type": "Point", "coordinates": [ 50.1802732, 26.2910597 ] } },
{ "type": "Feature", "properties": { "category": "resturant", "city": "Al Khobar", "latitude": 26.3024254, "longitude": 50.1776233, "name": "By Mario", "rating": 4.1, "close_open": "open", "close_open_year_test": 2020 }, "geometry": { "type": "Point", "coordinates": [ 50.1776233, 26.3024254 ] } },
{ "type": "Feature", "properties": { "category": "resturant", "city": "Al Khobar", "latitude": 26.3023686, "longitude": 50.1810494, "name": "Takhtakh | تختخ", "rating": 4.6, "close_open": "open", "close_open_year_test": 2019 }, "geometry": { "type": "Point", "coordinates": [ 50.1810494, 26.3023686 ] } },
{ "type": "Feature", "properties": { "category": "resturant", "city": "Al Khobar", "latitude": 26.2985061, "longitude": 50.1801862, "name": "Scrumptious Best Bruger", "rating": 4.3, "close_open": "open", "close_open_year_test": 2019 }, "geometry": { "type": "Point", "coordinates": [ 50.1801862, 26.2985061 ] } }
]
}
